url,beds,city,date,size,type,baths,price,neighborhood,price_per_sqft,full_address,latitude,longitude
https://www.99acres.com/residential-land-plot-for-sale-in-vaishnavi-urban-county-jigani-bangalore-south-89-sq-yard-to-140-sq-yard-npspid-X80116283,0,Bangalore,19-02-2025,1028.0,Residential land / Plot,0,2317000.0,Jigani,2253.8910505836575,"Jigani, Bangalore",12.7780787,77.6357776
https://www.99acres.com/2-bhk-bedroom-apartment-flat-for-sale-in-prestige-jindal-city-tumkur-road-bangalore-west-1085-sq-ft-spid-F79144279,2,Bangalore,19-02-2025,1085.0,2 BHK Flat,2,12500000.0,Tumkur Road,11520.737327188941,"Tumkur Road, Bangalore",13.0167955,77.5538127
https://www.99acres.com/sumadhura-capitol-residences-whitefield-bangalore-east-npxid-r433778,3,Bangalore,19-02-2025,1837.0,"3, 4 BHK Apartment",0,23200000.0,Whitefield,12629.286880783886,"Whitefield, Bangalore",12.9957428,77.7579489
https://www.99acres.com/provident-botanico-soukya-road-bangalore-east-npxid-r424433,2,Bangalore,19-02-2025,830.0,"2, 3 BHK Apartment",0,889000.0,Soukya Road,1071.0843373493976,"Soukya Road, Bangalore",12.9929644,77.7969989
https://www.99acres.com/kvg-superior-kalkere-bangalore-south-npxid-r438820,2,Bangalore,19-02-2025,1314.0,"2, 3 BHK Apartment",0,6483000.0,Kalkere,4933.7899543379,"Kalkere, Bangalore",13.0344453,77.6766779
https://www.99acres.com/nambiar-district-25-sarjapur-road-bangalore-east-npxid-r432506,2,Bangalore,19-02-2025,1840.0,"2, 3, 4 BHK Apartment",0,15000000.0,Sarjapur Road,8152.173913043478,"Sarjapur Road, Bangalore",12.92419,77.6288841
https://www.99acres.com/mahaveer-celesse-yelahanka-bangalore-north-npxid-r263821,2,Bangalore,19-02-2025,1350.0,"2, 3 BHK Apartment",0,7518000.0,Yelahanka,5568.888888888889,"Yelahanka, Bangalore",13.1006982,77.5963454
https://www.99acres.com/keya-life-by-the-lake-hebbal-bangalore-north-npxid-r178479,4,Bangalore,19-02-2025,,"4, 5 BHK Villa",0,39800000.0,Hebbal,,"Hebbal, Bangalore",13.0382184,77.5919
https://www.99acres.com/amrutha-platinum-towers-whitefield-bangalore-east-npxid-r305417,2,Bangalore,19-02-2025,1320.0,"2, 3 BHK Apartment",0,11100000.0,Whitefield,8409.09090909091,"Whitefield, Bangalore",12.9957428,77.7579489
https://www.99acres.com/keya-spring-bannerghatta-road-bangalore-south-npxid-r401648,2,Bangalore,19-02-2025,2010.0,"2, 3, 4 BHK Apartment",0,15700000.0,Bannerghatta Road,7810.945273631841,"Bannerghatta Road, Bangalore",12.8939401,77.5992211
https://www.99acres.com/4-bhk-bedroom-apartment-flat-for-sale-in-trump-tower-sector-65-gurgaon-6050-sq-ft-r2-spid-I63419088,4,Gurgaon,19-02-2025,6050.0,4 BHK Flat,4,200000000.0,Sector 65,33057.85123966942,"Sector 65, Gurgaon",28.4030162,77.0695893
https://www.99acres.com/4-bhk-bedroom-apartment-flat-for-sale-in-indiabulls-centrum-park-sector-103-gurgaon-4200-sq-ft-spid-Y78047881,4,Gurgaon,19-02-2025,4200.0,4 BHK Flat,4,40100000.0,Sector 103,9547.619047619048,"Sector 103, Gurgaon",28.493087,76.9866453
https://www.99acres.com/residential-land-plot-for-sale-in-rosewood-city-gurgaon-1000-sq-yard-spid-W80263135,0,Gurgaon,2025-02-19T04:38:38.179Z,9000.0,Residential land / Plot,0,249500000.0,Rosewood City,27722.222222222223,"Rosewood City, Gurgaon",28.4102341,77.0544854
https://www.99acres.com/godrej-aristocrat-sector-49-gurgaon-npxid-r419936,3,Gurgaon,2025-02-19T04:38:38.179Z,1360.0,3 BHK Apartment,0,52800000.0,Sector 49,38823.529411764706,"Sector 49, Gurgaon",28.4128851,77.0498362
https://www.99acres.com/4-bhk-bedroom-apartment-flat-for-sale-in-godrej-aristocrat-sector-49-gurgaon-1940-sq-ft-spid-U79308375,4,Gurgaon,2025-02-19T04:38:38.179Z,1942.0,4 BHK Apartment,5,69000000.0,Sector 49,35530.38105046344,"Sector 49, Gurgaon",28.4128851,77.0498362
https://www.99acres.com/4-bhk-bedroom-apartment-flat-for-sale-in-orchid-petals-uppals-southend-gurgaon-2562-sq-ft-spid-F79012087,4,Gurgaon,2025-02-19T04:38:38.179Z,2562.0,4 BHK Flat,4,41600000.0,Uppals Southend,16237.314597970335,"Uppals Southend, Gurgaon",,
https://www.99acres.com/3-bhk-bedroom-apartment-flat-for-sale-in-orchid-petals-sector-49-gurgaon-1805-sq-ft-spid-D79543409,3,Gurgaon,2025-02-19T04:38:38.179Z,1805.0,3 BHK Flat,3,30500000.0,Sector 49,16897.506925207756,"Sector 49, Gurgaon",28.4128851,77.0498362
https://www.99acres.com/4-bhk-bedroom-independent-builder-floor-for-sale-in-south-city-2-gurgaon-4500-sq-ft-spid-Q79885617,4,Gurgaon,2025-02-19T04:38:38.179Z,4500.0,4 BHK Independent Builder Floor,5,45000000.0,South City 2,10000.0,"South City 2, Gurgaon",28.4188806,77.0439211
https://www.99acres.com/4-bhk-bedroom-independent-builder-floor-for-sale-in-rosewood-city-gurgaon-3150-sq-ft-spid-N79854273,4,Gurgaon,2025-02-19T04:38:38.179Z,3150.0,4 BHK Independent Builder Floor,4,44900000.0,Rosewood City,14253.968253968254,"Rosewood City, Gurgaon",28.4102341,77.0544854
https://www.99acres.com/4-bhk-bedroom-independent-builder-floor-for-sale-in-luxury-builder-floor-in-south-city-2-south-city-2-gurgaon-3240-sq-ft-spid-L79885421,4,Gurgaon,2025-02-19T04:38:38.179Z,3240.0,4 BHK Independent Builder Floor,4,34000000.0,South City 2,10493.827160493827,"South City 2, Gurgaon",28.4188806,77.0439211
https://www.99acres.com/3-bhk-bedroom-independent-house-villa-for-sale-in-atchampeta-kakinada-2600-sq-ft-spid-F79579347,3,Kakinada,1mo ago,2600.0,Luxury Villa,5,16500000.0,Atchampeta,6346.153846153846,"Atchampeta, Kakinada",,
https://www.99acres.com/3-bhk-bedroom-independent-house-villa-for-sale-in-kovvada-kakinada-1800-sq-ft-spid-W79454185,3,Kakinada,1mo ago,1800.0,Luxury Villa,2,11600000.0,Kovvada,6444.444444444444,"Kovvada, Kakinada",16.9634069,82.1994891
https://www.99acres.com/4-bhk-bedroom-independent-house-villa-for-sale-in-vakalapudi-kakinada-165-sq-ft-spid-J78732827,4,Kakinada,2mo ago,165.0,Luxury Villa,6,10000000.0,Vakalapudi,60606.06060606061,"Vakalapudi, Kakinada",17.0144854,82.2826999
https://www.99acres.com/5-bhk-bedroom-independent-house-villa-for-sale-in-sasikanth-nagar-kakinada-28800-sq-ft-spid-O80294923,5,Kakinada,4d ago,2304.0,Luxury Villa,5,20000000.0,Sasikanth Nagar,8680.555555555555,"Sasikanth Nagar, Kakinada",16.9883045,82.253725
https://www.99acres.com/4-bhk-bedroom-independent-house-villa-for-sale-in-sasikanth-nagar-kakinada-2400-sq-ft-spid-O80266555,4,Kakinada,6d ago,230.0,Luxury Villa,5,20000000.0,Sasikanth Nagar,86956.52173913043,"Sasikanth Nagar, Kakinada",16.9883045,82.253725
https://www.99acres.com/5-bhk-bedroom-independent-house-villa-for-sale-in-ramanayapeta-kakinada-3150-sq-ft-spid-X80181911,5,Kakinada,1w ago,3150.0,Luxury Villa,5,25000000.0,Ramanayapeta,7936.507936507936,"Ramanayapeta, Kakinada",,
https://www.99acres.com/3-bhk-bedroom-independent-house-villa-for-sale-in-atchampeta-kakinada-2600-sq-ft-spid-F79579347,3,Kakinada,19-01-2025,2600.0,Villa,5,16500000.0,Atchampeta,6346.153846153846,"Atchampeta, Kakinada",,
https://www.99acres.com/3-bhk-bedroom-independent-house-villa-for-sale-in-kovvada-kakinada-1800-sq-ft-spid-W79454185,3,Kakinada,19-01-2025,1800.0,Villa,2,11600000.0,Kovvada,6444.444444444444,"Kovvada, Kakinada",16.9634069,82.1994891
https://www.99acres.com/2-bhk-bedroom-independent-house-villa-for-sale-in-madhavapatnam-kakinada-350-sq-ft-r1-spid-A76438401,2,Kakinada,19-01-2025,350.0,Villa,1,5500000.0,Madhavapatnam,15714.285714285714,"Madhavapatnam, Kakinada",16.990485,82.2092166
https://www.99acres.com/3-bhk-bedroom-independent-house-villa-for-sale-in-sbi-employees-colony-kakinada-1283-sq-ft-spid-J78764367,3,Kakinada,19-01-2025,1368.0,Villa,3,6900000.0,SBI Employees Colony,5043.859649122807,"SBI Employees Colony, Kakinada",17.0156904,82.2620101
https://www.99acres.com/4-bhk-bedroom-independent-house-villa-for-sale-in-vakalapudi-kakinada-165-sq-ft-spid-J78732827,4,Kakinada,19-01-2025,165.0,Villa,6,10000000.0,Vakalapudi,60606.06060606061,"Vakalapudi, Kakinada",17.0144854,82.2826999
https://www.99acres.com/5-bhk-bedroom-independent-house-villa-for-sale-in-sasikanth-nagar-kakinada-28800-sq-ft-spid-O80294923,5,Kakinada,19-01-2025,2304.0,Villa,4,20000000.0,Sasikanth Nagar,8680.555555555555,"Sasikanth Nagar, Kakinada",16.9883045,82.253725
https://www.99acres.com/3-bhk-bedroom-independent-house-villa-for-sale-in-rameswaram-kakinada-1450-sq-ft-spid-G80269003,3,Kakinada,19-01-2025,1450.0,Villa,2,5800000.0,Rameswaram,4000.0,"Rameswaram, Kakinada",16.9709231,82.192988
https://www.99acres.com/4-bhk-bedroom-independent-house-villa-for-sale-in-sasikanth-nagar-kakinada-2400-sq-ft-spid-O80266555,4,Kakinada,19-01-2025,230.0,Villa,5,20000000.0,Sasikanth Nagar,86956.52173913043,"Sasikanth Nagar, Kakinada",16.9883045,82.253725
https://www.99acres.com/5-bhk-bedroom-independent-house-villa-for-sale-in-ramanayapeta-kakinada-3150-sq-ft-spid-X80181911,5,Kakinada,19-01-2025,3150.0,Villa,5,25000000.0,Ramanayapeta,7936.507936507936,"Ramanayapeta, Kakinada",,
https://www.99acres.com/4-bhk-bedroom-independent-house-villa-for-sale-in-ramanayapeta-kakinada-1422-sq-ft-spid-T80143813,4,Kakinada,19-01-2025,1422.0,Villa,2,8000000.0,Ramanayapeta,5625.879043600563,"Ramanayapeta, Kakinada",,
https://www.99acres.com/residential-land-plot-for-sale-in-thagarapuvalasa-visakhapatnam-167-sq-yard-spid-I76078449,0,Visakhapatnam,2025-02-19T04:38:36.102Z,1503.0,Residential land / Plot,0,4676000.0,Thagarapuvalasa,3111.1111111111113,"Thagarapuvalasa, Visakhapatnam",,
https://www.99acres.com/residential-land-plot-for-sale-in-bheemili-visakhapatnam-140-sq-yard-spid-I76618949,0,Visakhapatnam,2025-02-19T04:38:36.102Z,1260.0,Residential land / Plot,0,3780000.0,Bheemili,3000.0,"Bheemili, Visakhapatnam",17.8898601,83.4382376
https://www.99acres.com/rudra-seniors-madhurawada-visakhapatnam-npxid-r408482,2,Visakhapatnam,2025-02-19T04:38:36.102Z,1120.0,2 BHK Apartment,2,4940000.0,Madhurawada,4410.714285714285,"Madhurawada, Visakhapatnam",17.8102465,83.3540167
https://www.99acres.com/vk-erica-madhurawada-visakhapatnam-npxid-r438076,3,Visakhapatnam,2025-02-19T04:38:36.102Z,1920.0,3 BHK Apartment,3,9454000.0,Madhurawada,4923.958333333333,"Madhurawada, Visakhapatnam",17.8102465,83.3540167
https://www.99acres.com/the-celest-gajuwaka-visakhapatnam-npxid-r377188,2,Visakhapatnam,2025-02-19T04:38:36.102Z,970.0,"2, 3 BHK Apartment",2,7501000.0,Gajuwaka,7732.98969072165,"Gajuwaka, Visakhapatnam",17.6813983,83.2130062
https://www.99acres.com/edara-twilight-park-shivaji-palem-visakhapatnam-npxid-r439018,3,Visakhapatnam,2025-02-19T04:38:36.102Z,2420.0,3 BHK Apartment,3,18700000.0,Shivaji Palem,7727.272727272727,"Shivaji Palem, Visakhapatnam",,
https://www.99acres.com/mvv-and-mk-park-gajuwaka-visakhapatnam-npxid-r331705,2,Visakhapatnam,2025-02-19T04:38:36.102Z,970.0,2 BHK Apartment,2,3133000.0,Gajuwaka,3229.896907216495,"Gajuwaka, Visakhapatnam",17.6813983,83.2130062
https://www.99acres.com/mvv-towers-yendada-visakhapatnam-npxid-r385012,2,Visakhapatnam,2025-02-19T04:38:36.102Z,1330.0,"2, 3 BHK Apartment",2,6947000.0,Yendada,5223.308270676692,"Yendada, Visakhapatnam",17.7831798,83.3575511
https://www.99acres.com/rs-aurora-bay-bheemili-visakhapatnam-npxid-r411360,3,Visakhapatnam,2025-02-19T04:38:36.102Z,4860.0,"3, 4, 5, 6 BHK Villa",3,29800000.0,Bheemili,6131.6872427983535,"Bheemili, Visakhapatnam",17.8898601,83.4382376
https://www.99acres.com/residential-land-plot-for-sale-in-vennala-kochi-339-sq-yard-spid-D78423293,0,Kochi,3mo ago,3049.0,Residential land / Plot,0,12000000.0,Vennala,3935.716628402755,"Vennala, Kochi",9.9983003,76.3251702
https://www.99acres.com/residential-land-plot-for-sale-in-vennala-kochi-1162-sq-yard-spid-O79520349,0,Kochi,1mo ago,10454.0,Residential land / Plot,0,39600000.0,Vennala,3788.023722976851,"Vennala, Kochi",9.9983003,76.3251702
https://www.99acres.com/3-bhk-bedroom-apartment-flat-for-sale-in-nagpal-sapphire-heights-vennala-kochi-1388-sq-ft-spid-D80169371,3,Kochi,1w ago,1388.0,3 BHK Flat,2,7500000.0,Nagpal Sapphire Heights,5403.458213256484,"Nagpal Sapphire Heights, Kochi",,
https://www.99acres.com/3-bhk-bedroom-independent-house-villa-for-sale-in-vennala-kochi-1375-sq-ft-spid-J79757557,3,Kochi,4w ago,1375.0,3 Bedroom House,3,7000000.0,Vennala,5090.909090909091,"Vennala, Kochi",9.9983003,76.3251702
https://www.99acres.com/3-bhk-bedroom-apartment-flat-for-sale-in-vennala-kochi-1350-sq-ft-r1-spid-J51800632,3,Kochi,1mo ago,1350.0,3 BHK Flat,3,5000000.0,sheetal apartments,3703.703703703704,"sheetal apartments, Kochi",,
https://www.99acres.com/residential-land-plot-for-sale-in-chalikavattom-kochi-104-sq-yard-spid-G78545131,0,Kochi,3mo ago,940.0,Residential land / Plot,0,1500000.0,Chalikavattom,1595.7446808510638,"Chalikavattom, Kochi",9.9877819,76.3157344
https://www.99acres.com/3-bhk-bedroom-independent-house-villa-for-sale-in-chalikavattom-kochi-1375-sq-ft-spid-B78323137,3,Kochi,3mo ago,1375.0,3 Bedroom House,3,7000000.0,Chalikavattom,5090.909090909091,"Chalikavattom, Kochi",9.9877819,76.3157344
https://www.99acres.com/2-bhk-bedroom-apartment-flat-for-sale-in-chalikavattom-kochi-1000-sq-ft-r5-spid-P60024418,2,Kochi,2w ago,1000.0,2 BHK Flat,2,8000000.0,good earth hamlet,8000.0,"good earth hamlet, Kochi",,
https://www.99acres.com/3-bhk-bedroom-independent-house-villa-for-sale-in-chakkaraparambu-kochi-1000-sq-ft-r2-spid-R63177728,3,Kochi,2mo ago,1000.0,3 Bedroom House,3,7500000.0,Chakkaraparambu,7500.0,"Chakkaraparambu, Kochi",9.989384,76.3155185
https://www.99acres.com/residential-land-plot-for-sale-in-chakkaraparambu-kochi-3975-sq-yard-r1-spid-Q55098104,0,Kochi,2mo ago,35790.0,Residential land / Plot,0,35000000.0,Chakkaraparambu,977.9267951941883,"Chakkaraparambu, Kochi",9.989384,76.3155185
https://www.99acres.com/9-bhk-bedroom-independent-house-villa-for-sale-in-sector-39-noida-3226-sq-ft-r8-spid-U66608396,9,Noida,1mo ago,3229.0,Independent House/Villa,9,55000000.0,Sector 39,17033.137194177765,"Sector 39, Noida",28.5686223,77.3521097
https://www.99acres.com/residential-land-plot-for-sale-in-rwa-sector-122-sector-122-noida-538-sq-yard-spid-C79242955,0,Noida,Yesterday,4843.0,Residential Land,0,90000000.0,Sector 122,18583.52260995251,"Sector 122, Noida",28.5929062,77.3975661
https://www.99acres.com/residential-land-plot-for-sale-in-od-kedeswar-vihar-phulnakhara-bhubaneswar-133-sq-yard-to-222-sq-yard-npspid-S78806221,0,Bhubaneswar,19-02-2025,,Residential land / Plot,0,1559000.0,Phulnakhara,,"Phulnakhara, Bhubaneswar",,
https://www.99acres.com/3-bhk-bedroom-apartment-flat-for-sale-in-shuvam-meadows-patia-bhubaneswar-2179-sq-ft-spid-V79818033,3,Bhubaneswar,19-02-2025,2179.0,3 BHK Flat,3,18000000.0,Patia,8260.670032124828,"Patia, Bhubaneswar",20.3604502,85.8247661
https://www.99acres.com/mahima-greenex-hanspal-bhubaneswar-npxid-r413530,2,Bhubaneswar,19-02-2025,860.0,"2, 3 BHK Apartment",0,7900000.0,Hanspal,9186.046511627907,"Hanspal, Bhubaneswar",,
https://www.99acres.com/one-world-janla-bhubaneswar-npxid-r424559,2,Bhubaneswar,19-02-2025,1400.0,"2, 3 BHK Apartment",0,8938000.0,Janla,6384.285714285715,"Janla, Bhubaneswar",,
https://www.99acres.com/urban-sereno-gothapatna-bhubaneswar-npxid-r420678,2,Bhubaneswar,19-02-2025,2120.0,"2, 3 BHK Apartment",0,8286000.0,Gothapatna,3908.490566037736,"Gothapatna, Bhubaneswar",,
https://www.99acres.com/falcon-tatva-khandagiri-bhubaneswar-npxid-r411558,3,Bhubaneswar,19-02-2025,1802.0,"3, 4 BHK Apartment",0,20600000.0,Khandagiri,11431.742508324085,"Khandagiri, Bhubaneswar",20.2661224,85.7832241
https://www.99acres.com/motwani-anantara-jharapada-bhubaneswar-npxid-r421539,3,Bhubaneswar,19-02-2025,2630.0,"3, 4 BHK Apartment",0,14700000.0,Jharapada,5589.3536121673005,"Jharapada, Bhubaneswar",,
https://www.99acres.com/z-padmanabha-pahala-bhubaneswar-npxid-r413474,2,Bhubaneswar,19-02-2025,2000.0,"2, 3, 4, 5 BHK Apartment",0,11800000.0,Pahala,5900.0,"Pahala, Bhubaneswar",,
https://www.99acres.com/utkal-reserve-patrapada-bhubaneswar-npxid-r390078,2,Bhubaneswar,19-02-2025,2460.0,"2, 3, 4, 5 BHK Apartment",0,14000000.0,Patrapada,5691.056910569106,"Patrapada, Bhubaneswar",,
https://www.99acres.com/utkal-isquare-patia-bhubaneswar-npxid-r424292,2,Bhubaneswar,19-02-2025,855.0,"2, 3 BHK Apartment",0,7200000.0,Patia,8421.052631578947,"Patia, Bhubaneswar",20.3604502,85.8247661
https://www.99acres.com/5-bhk-bedroom-independent-house-villa-for-sale-in-s-saamarth-twinland-koba-gandhinagar-8478-sq-ft-to-10573-sq-ft-npspid-G79358405,5,Gandhinagar,19-02-2025,9530.0,5 BHK House,0,0.0,"Koba, Raysan",0.0,"Koba, Raysan, Gandhinagar",,
https://www.99acres.com/2-bhk-bedroom-apartment-flat-for-sale-in-sargasan-gandhinagar-1530-sq-ft-spid-Z79621649,2,Gandhinagar,19-02-2025,1530.0,2 BHK Flat,2,6500000.0,Sargasan,4248.366013071895,"Sargasan, Gandhinagar",23.1842801,72.6156802
https://www.99acres.com/polaris-calice-randesan-gandhinagar-npxid-r411905,3,Gandhinagar,19-02-2025,2580.0,3 BHK Apartment,0,11200000.0,Randesan,4341.085271317829,"Randesan, Gandhinagar",23.1790845,72.6472583
https://www.99acres.com/sobha-elysia-gift-city-gandhinagar-npxid-r426127,3,Gandhinagar,19-02-2025,1940.0,"3, 4 BHK Apartment",0,25400000.0,Gift City,13092.783505154639,"Gift City, Gandhinagar",23.1629053,72.688695
https://www.99acres.com/altezza-by-the-palm-sargasan-gandhinagar-npxid-r394631,3,Gandhinagar,19-02-2025,2916.0,3 BHK Apartment,0,11900000.0,Sargasan,4080.932784636488,"Sargasan, Gandhinagar",23.1842801,72.6156802
https://www.99acres.com/the-one-randesan-gandhinagar-npxid-r425978,4,Gandhinagar,19-02-2025,4850.0,"4, 5 BHK Apartment",0,20000000.0,Randesan,4123.711340206186,"Randesan, Gandhinagar",23.1790845,72.6472583
https://www.99acres.com/polaris-casarica-sargasan-gandhinagar-npxid-r393562,3,Gandhinagar,19-02-2025,2475.0,3 BHK Apartment,0,10700000.0,Sargasan,4323.232323232323,"Sargasan, Gandhinagar",23.1842801,72.6156802
https://www.99acres.com/srushti-kudasan-gandhinagar-npxid-r383515,2,Gandhinagar,19-02-2025,2700.0,"2, 3, 4 BHK Apartment",0,7014000.0,Kudasan,2597.777777777778,"Kudasan, Gandhinagar",23.1704419,72.6234269
https://www.99acres.com/ekarth-sarvam-koba-gandhinagar-npxid-r428573,4,Gandhinagar,19-02-2025,7200.0,"4, 5 BHK Apartment",0,0.0,Koba,0.0,"Koba, Gandhinagar",23.1445974,72.6339875
https://www.99acres.com/shilp-north-sky-gift-city-gandhinagar-npxid-r406643,2,Gandhinagar,19-02-2025,3040.0,"2, 3, 4 BHK Apartment",0,12200000.0,Gift City,4013.157894736842,"Gift City, Gandhinagar",23.1629053,72.688695
https://www.99acres.com/residential-land-plot-for-sale-in-kanyakumari-121-sq-yard-spid-C79440309,0,Kanyakumari,17-02-2025,1090.0,Plot/Land,0,4000000.0,"Near Shri Shirdi Sai Baba Temple, Pothayadi junction.",3669.7247706422017,"Near Shri Shirdi Sai Baba Temple, Pothayadi junction., Kanyakumari",,
https://www.99acres.com/residential-land-plot-for-sale-in-azad-nagar-madhavalayam-kanyakumari-339-sq-yard-spid-R79917611,0,Kanyakumari,05-02-2025,3049.0,Plot/Land,0,6300000.0,"Madhavalayam, Azad Nagar",2066.2512299114464,"Madhavalayam, Azad Nagar, Kanyakumari",,
https://www.99acres.com/residential-land-plot-for-sale-in-thiruppathisaram-kanyakumari-48-sq-yard-spid-C79621191,0,Kanyakumari,02-02-2025,435.0,Plot/Land,0,1100000.0,Thiruppathisaram,2528.735632183908,"Thiruppathisaram, Kanyakumari",,
https://www.99acres.com/residential-land-plot-for-sale-in-putheri-kanyakumari-242-sq-yard-spid-N79629105,0,Kanyakumari,02-02-2025,2178.0,Plot/Land,0,4000000.0,Putheri,1836.5472910927456,"Putheri, Kanyakumari",,
https://www.99acres.com/residential-land-plot-for-sale-in-thuckalay-kanyakumari-439-sq-yard-spid-K80381775,0,Kanyakumari,18-02-2025,3950.0,Plot/Land,0,13500000.0,Thuckalay,3417.721518987342,"Thuckalay, Kanyakumari",8.2583669,77.3111896
https://www.99acres.com/residential-land-plot-for-sale-in-kulasekharam-kanyakumari-290-sq-yard-spid-G80376215,0,Kanyakumari,18-02-2025,2613.0,Plot/Land,0,3600000.0,Kulasekharam,1377.7267508610792,"Kulasekharam, Kanyakumari",,
https://www.99acres.com/residential-land-plot-for-sale-in-marthandam-kanyakumari-1111-sq-yard-spid-X80321373,0,Kanyakumari,16-02-2025,10000.0,Plot/Land,0,53000000.0,Marthandam,5300.0,"Marthandam, Kanyakumari",8.3037096,77.2297022
https://www.99acres.com/residential-land-plot-for-sale-in-mandaikadu-kanyakumari-629-sq-yard-spid-N80300531,0,Kanyakumari,15-02-2025,5662.0,Plot/Land,0,5460000.0,Mandaikadu,964.3235605793006,"Mandaikadu, Kanyakumari",8.162546,77.2790757
https://www.99acres.com/residential-land-plot-for-sale-in-thuckalay-kanyakumari-242-sq-yard-spid-V80241639,0,Kanyakumari,15-02-2025,2178.0,Plot/Land,0,3000000.0,Thuckalay,1377.4104683195592,"Thuckalay, Kanyakumari",8.2583669,77.3111896
https://www.99acres.com/3-bhk-bedroom-independent-house-villa-for-sale-in-marthandam-kanyakumari-3800-sq-ft-spid-G80215947,3,Kanyakumari,12-02-2025,3800.0,House,2,10000000.0,Marthandam,2631.5789473684213,"Marthandam, Kanyakumari",8.3037096,77.2297022
https://www.99acres.com/residential-land-plot-for-sale-in-sulur-coimbatore-319-sq-yard-r2-spid-H77649167,0,Coimbatore,19-02-2025,2874.0,Residential land / Plot,0,1998000.0,Sulur,695.1983298538622,"Sulur, Coimbatore",10.9890536,77.1014971
https://www.99acres.com/residential-land-plot-for-sale-in-ettimadai-coimbatore-147-sq-yard-spid-D79347859,0,Coimbatore,19-02-2025,1321.0,Residential land / Plot,0,7678000.0,Ettimadai,5812.26343679031,"Ettimadai, Coimbatore",10.8984762,76.8959745
https://www.99acres.com/green-field-crystal-gateway-sulur-coimbatore-npxid-r439016,2,Coimbatore,19-02-2025,,"2, 3, 4 BHK Villa, Land",0,1240000.0,Sulur,,"Sulur, Coimbatore",10.9890536,77.1014971
https://www.99acres.com/royal-kalpataru-ganapathy-coimbatore-npxid-r275677,4,Coimbatore,19-02-2025,,"4, 5 BHK Villa",0,25100000.0,Ganapathy,,"Ganapathy, Coimbatore",11.0383247,76.9780717
https://www.99acres.com/harish-bhairav-vellakinar-coimbatore-npxid-r398187,2,Coimbatore,19-02-2025,,"2, 3 BHK Villa",0,1500000.0,Vellakinar,,"Vellakinar, Coimbatore",11.0733308,76.9558099
https://www.99acres.com/rks-shivom-sulur-coimbatore-npxid-r409009,2,Coimbatore,19-02-2025,,"2, 3 BHK Villa, Land",0,948000.0,Sulur,,"Sulur, Coimbatore",10.9890536,77.1014971
https://www.99acres.com/trisquare-amber-gn-mills-coimbatore-npxid-r430125,3,Coimbatore,19-02-2025,,"3, 4, 5 BHK Villa",0,23000000.0,GN Mills,,"GN Mills, Coimbatore",11.060303,76.9447575
https://www.99acres.com/vsks-aira-singanallur-coimbatore-npxid-r397871,2,Coimbatore,19-02-2025,,"2, 3, 4 BHK Apartment",0,880000.0,Singanallur,,"Singanallur, Coimbatore",11.0124691,77.0391191
https://www.99acres.com/golden-town-karamadai-coimbatore-npxid-r439297,0,Coimbatore,19-02-2025,,Land,0,1859000.0,Karamadai,,"Karamadai, Coimbatore",11.2393183,76.9600768
https://www.99acres.com/skm-indraprastha-residency-thudiyalur-coimbatore-npxid-r421314,3,Coimbatore,19-02-2025,,"3, 4 BHK Villa",0,8232000.0,Thudiyalur,,"Thudiyalur, Coimbatore",11.0805532,76.9421498
https://www.99acres.com/residential-land-plot-for-sale-in-penamaluru-vijayawada-167-sq-yard-r13-spid-J63431142,0,Vijayawada,19-02-2025,1503.0,Residential land / Plot,0,2004000.0,Penamaluru,1333.3333333333333,"Penamaluru, Vijayawada",16.4847463,80.6837924
https://www.99acres.com/residential-land-plot-for-sale-in-penamaluru-vijayawada-183-sq-yard-r13-spid-B63431288,0,Vijayawada,19-02-2025,1647.0,Residential land / Plot,0,2196000.0,Penamaluru,1333.3333333333333,"Penamaluru, Vijayawada",16.4847463,80.6837924
https://www.99acres.com/alekhya-grand-sri-ramachandra-nagar-vijayawada-npxid-r425422,4,Vijayawada,19-02-2025,3690.0,4 BHK Apartment,0,26700000.0,Sri Ramachandra Nagar,7235.772357723577,"Sri Ramachandra Nagar, Vijayawada",,
https://www.99acres.com/aiswarya-gateway-pamarru-vijayawada-npxid-r439430,0,Vijayawada,19-02-2025,1960.0,Land,0,1350000.0,Pamarru,688.7755102040817,"Pamarru, Vijayawada",16.2593022,81.0221488
https://www.99acres.com/fugen-royal-infinia-ramavarappadu-vijayawada-npxid-r436943,0,Vijayawada,19-02-2025,4615.0,Land,0,7552000.0,Ramavarappadu,1636.403033586132,"Ramavarappadu, Vijayawada",16.5270964,80.679073
https://www.99acres.com/sree-hemadurga-jewel-county-gannavaram-vijayawada-npxid-r295973,2,Vijayawada,19-02-2025,955.0,"2, 3 BHK Apartment",2,5065000.0,Gannavaram,5303.664921465968,"Gannavaram, Vijayawada",16.5315766,80.8029504
https://www.99acres.com/vasishta-olympia-poranki-vijayawada-npxid-r423035,3,Vijayawada,19-02-2025,3400.0,"3, 4 BHK Apartment",0,0.0,Poranki,0.0,"Poranki, Vijayawada",16.5040612,80.7181927
https://www.99acres.com/badris-jishnu-nivas-tadigadapa-vijayawada-npxid-r423265,2,Vijayawada,19-02-2025,2225.0,"2, 3 BHK Apartment",0,0.0,Tadigadapa,0.0,"Tadigadapa, Vijayawada",16.4798325,80.6976257
https://www.99acres.com/residential-land-plot-for-sale-in-ambapuram-vijayawada-533-sq-yard-r2-spid-N66036718,0,Vijayawada,19-02-2025,4797.0,Residential land / Plot,0,20000000.0,Ambapuram,4169.272461955389,"Ambapuram, Vijayawada",16.5650915,80.6262006
https://www.99acres.com/residential-land-plot-for-sale-in-birpara-jalpaiguri-80-sq-yard-r1-spid-Y78452569,0,Jalpaiguri,2025-02-19T04:38:38.010Z,720.0,Residential land / Plot,0,500000.0,Mansarovar Township (Siliguri WB),694.4444444444445,"Mansarovar Township (Siliguri WB), Jalpaiguri",,
https://www.99acres.com/residential-land-plot-for-sale-in-uttar-kamakhyaguri-jalpaiguri-8342-sq-yard-spid-R80314621,0,Jalpaiguri,2025-02-19T04:38:38.010Z,75075.0,Residential land / Plot,0,10400000.0,Uttar Kamakhyaguri,138.52813852813853,"Uttar Kamakhyaguri, Jalpaiguri",,
https://www.99acres.com/10-bhk-bedroom-independent-house-villa-for-sale-in-jalpaiguri-2024-sq-ft-spid-X80148443,10,Jalpaiguri,2025-02-19T04:38:38.010Z,2024.0,10 Bedroom House,3,6500000.0,Kirat Bhumi,3211.4624505928855,"Kirat Bhumi, Jalpaiguri",,
https://www.99acres.com/residential-land-plot-for-sale-in-jalpaiguri-375-sq-yard-r22-spid-M25289542,0,Jalpaiguri,2025-02-19T04:38:38.010Z,3375.0,Residential land / Plot,0,11000000.0,Hakimpara,3259.259259259259,"Hakimpara, Jalpaiguri",,
https://www.99acres.com/2-bhk-bedroom-independent-house-villa-for-sale-in-maynaguri-jalpaiguri-3200-sq-ft-spid-J79575407,2,Jalpaiguri,2025-02-19T04:38:38.010Z,3200.0,2 Bedroom House,1,3000000.0,Maynaguri,937.5,"Maynaguri, Jalpaiguri",26.5652519,88.8221321
https://www.99acres.com/residential-land-plot-for-sale-in-jalpaiguri-480-sq-yard-spid-B79283981,0,Jalpaiguri,2025-02-19T04:38:38.010Z,4319.0,Residential land / Plot,0,2400000.0,Ambari falakata,555.6841861542024,"Ambari falakata, Jalpaiguri",26.6411476,88.5105056
https://www.99acres.com/5-bhk-bedroom-independent-house-villa-for-sale-in-goshala-jalpaiguri-2102-sq-ft-spid-H79094883,5,Jalpaiguri,2025-02-19T04:38:38.010Z,2102.0,5 Bedroom House,2,6700000.0,Goshala,3187.44053282588,"Goshala, Jalpaiguri",26.5470523,88.7091266
https://www.99acres.com/2-bhk-bedroom-apartment-flat-for-sale-in-rajbari-para-jalpaiguri-890-sq-ft-spid-K79003267,2,Jalpaiguri,2025-02-19T04:38:38.010Z,890.0,2 BHK Flat,2,3500000.0,Rajbari Para,3932.5842696629215,"Rajbari Para, Jalpaiguri",26.5410307,88.7195772
https://www.99acres.com/residential-land-plot-for-sale-in-chalsa-jalpaiguri-800-sq-yard-spid-A78943427,0,Jalpaiguri,2025-02-19T04:38:38.010Z,7199.0,Residential land / Plot,0,5000000.0,Chalsa,694.5409084595083,"Chalsa, Jalpaiguri",26.8821508,88.7982502
https://www.99acres.com/residential-land-plot-for-sale-in-gairkata-jalpaiguri-1360-sq-yard-spid-V78830671,0,Jalpaiguri,2025-02-19T04:38:38.010Z,12239.0,Residential land / Plot,0,6000000.0,Gairkata,490.23613040281066,"Gairkata, Jalpaiguri",26.5894226,89.0070286
https://www.99acres.com/residential-land-plot-for-sale-in-nawabpet-medak-150-sq-yard-spid-I79945783,0,Hyderabad,19-02-2025,1350.0,Residential land / Plot,0,2400000.0,Nawabpet,1777.7777777777778,"Nawabpet, Hyderabad",,
https://www.99acres.com/3-bhk-bedroom-apartment-flat-for-sale-in-mokila-hyderabad-2713-sq-ft-r1-spid-D78555737,3,Hyderabad,19-02-2025,2713.0,3 BHK Flat,4,13600000.0,Mokila,5012.900847769996,"Mokila, Hyderabad",,
https://www.99acres.com/bricks-marvella-tellapur-hyderabad-npxid-r416504,2,Hyderabad,19-02-2025,,"2, 3, 4 BHK Apartment",2,10000000.0,Tellapur,,"Tellapur, Hyderabad",17.4503205,78.3009176
https://www.99acres.com/pranathis-kiara-tellapur-hyderabad-npxid-r405130,2,Hyderabad,19-02-2025,,"2, 3 BHK Apartment",2,9305000.0,Tellapur,,"Tellapur, Hyderabad",17.4503205,78.3009176
https://www.99acres.com/ananda-the-legacey-manikonda-hyderabad-npxid-r434519,2,Hyderabad,19-02-2025,,"2, 3 BHK Apartment",2,9582000.0,Manikonda,,"Manikonda, Hyderabad",17.3999951,78.3861689
https://www.99acres.com/moonglade-apartments-kokapet-hyderabad-npxid-r438704,3,Hyderabad,19-02-2025,,"3, 4 BHK Apartment",3,12600000.0,Kokapet,,"Kokapet, Hyderabad",17.3996472,78.351242
https://www.99acres.com/vajra-the-royal-park-bowrampet-hyderabad-npxid-r389235,2,Hyderabad,19-02-2025,,"2, 3 BHK Apartment",2,6756000.0,Bowrampet,,"Bowrampet, Hyderabad",,
https://www.99acres.com/dithya-agarta-kompally-hyderabad-npxid-r435622,3,Hyderabad,19-02-2025,,"3, 4 BHK Apartment",3,0.0,Kompally,,"Kompally, Hyderabad",17.5354868,78.5096979
https://www.99acres.com/incor-lake-city-patancheru-hyderabad-npxid-r373118,1,Hyderabad,19-02-2025,,"1, 2, 3 BHK Apartment",1,8212000.0,Patancheru,,"Patancheru, Hyderabad",17.5286092,78.2674254
https://www.99acres.com/nsl-nakshatra-kphb-hyderabad-npxid-r428751,3,Hyderabad,19-02-2025,,"3, 4 BHK Apartment",3,19200000.0,KPHB,,"KPHB, Hyderabad",17.4939602,78.4008412
https://www.99acres.com/2-bhk-bedroom-apartment-flat-for-sale-in-gandhi-nagar-kakinada-1450-sq-ft-r2-spid-K71725910,2,Kakinada,18-02-2025,1450.0,Flat,2,7800000.0,Gandhi Nagar,5379.310344827586,"Gandhi Nagar, Kakinada",16.9663843,82.2235923
https://www.99acres.com/residential-land-plot-for-sale-in-turangi-kakinada-452-sq-yard-spid-U79636559,0,Kakinada,05-02-2025,4068.0,Land,0,11600000.0,Turangi,2851.5240904621437,"Turangi, Kakinada",16.9364219,82.2278304
https://www.99acres.com/3-bhk-bedroom-apartment-flat-for-sale-in-santhi-nagar-kakinada-1860-sq-ft-spid-Z78886921,3,Kakinada,19-01-2025,1860.0,Flat,3,9300000.0,Santhi Nagar,5000.0,"Santhi Nagar, Kakinada",16.967023,82.2307106
https://www.99acres.com/3-bhk-bedroom-apartment-flat-for-sale-in-vidyut-nagar-kakinada-1472-sq-ft-spid-K77492637,3,Kakinada,19-01-2025,1472.0,Flat,2,7000000.0,Vidyut Nagar,4755.434782608696,"Vidyut Nagar, Kakinada",,
https://www.99acres.com/3-bhk-bedroom-apartment-flat-for-sale-in-vidyut-nagar-kakinada-1550-sq-ft-spid-O78636973,3,Kakinada,19-01-2025,1550.0,Flat,3,8500000.0,Vidyut Nagar,5483.870967741936,"Vidyut Nagar, Kakinada",,
https://www.99acres.com/2-bhk-bedroom-apartment-flat-for-sale-in-kakinada-1100-sq-ft-spid-N79724963,2,Kakinada,18-02-2025,1100.0,Flat,2,5000000.0,Santinagar,4545.454545454545,"Santinagar, Kakinada",,
https://www.99acres.com/3-bhk-bedroom-apartment-flat-for-sale-in-rama-rao-peta-kakinada-1265-sq-ft-spid-L79080669,3,Kakinada,19-01-2025,1265.0,Flat,2,6578000.0,Rama Rao Peta,5200.0,"Rama Rao Peta, Kakinada",16.9630806,82.228192
https://www.99acres.com/4-bhk-bedroom-apartment-flat-for-sale-in-ramanayapeta-kakinada-2628-sq-ft-spid-L79139157,4,Kakinada,19-01-2025,2628.0,Flat,4,18000000.0,Ramanayapeta,6849.315068493151,"Ramanayapeta, Kakinada",,
https://www.99acres.com/residential-land-plot-for-sale-in-nadakuduru-kakinada-15-sq-yard-spid-L80364535,0,Kakinada,19-02-2025,133.0,Land,0,1064000.0,Nadakuduru,8000.0,"Nadakuduru, Kakinada",16.9158692,82.205147
https://www.99acres.com/2-bhk-bedroom-independent-house-villa-for-sale-in-suresh-nagar-kakinada-1080-sq-ft-spid-R80352773,2,Kakinada,19-02-2025,1080.0,House,2,5000000.0,Suresh Nagar,4629.62962962963,"Suresh Nagar, Kakinada",16.9787523,82.2513607
https://www.99acres.com/residential-land-plot-for-sale-in-budheshwar-lucknow-111-sq-yard-r1-spid-R78689421,0,Lucknow,19-02-2025,1000.0,Residential land / Plot,0,1099000.0,Budheshwar,1099.0,"Budheshwar, Lucknow",26.8410455,80.8525902
https://www.99acres.com/3-bhk-bedroom-apartment-flat-for-sale-in-sultanpur-road-lucknow-1489-sq-ft-r1-spid-J78635815,3,Lucknow,19-02-2025,1489.0,3 BHK Flat,3,6105000.0,Sultanpur Road,4100.067159167226,"Sultanpur Road, Lucknow",26.8053934,80.9935175
https://www.99acres.com/rishita-mulberry-heights-sushant-golf-city-lucknow-npxid-r325311,2,Lucknow,19-02-2025,,"2, 3 BHK Apartment",0,9059000.0,Sushant Golf City,,"Sushant Golf City, Lucknow",26.7801794,81.0247541
https://www.99acres.com/krishna-tower-kanpur-road-lucknow-npxid-r152473,2,Lucknow,19-02-2025,,"2, 3 BHK Apartment",0,3943000.0,Kanpur Road,,"Kanpur Road, Lucknow",26.77627,80.9019212
https://www.99acres.com/eldeco-trinity-gomti-nagar-extension-lucknow-npxid-r421468,2,Lucknow,19-02-2025,,"2, 3, 4, 5 BHK Apartment",0,20300000.0,Gomti Nagar Extension,,"Gomti Nagar Extension, Lucknow",,
https://www.99acres.com/shalimar-one-world-21-gomti-nagar-extension-lucknow-npxid-r429111,3,Lucknow,19-02-2025,,3 BHK Apartment,0,23500000.0,Gomti Nagar Extension,,"Gomti Nagar Extension, Lucknow",,
https://www.99acres.com/green-park-city-sultanpur-road-lucknow-npxid-r401774,0,Lucknow,19-02-2025,,Land,0,750000.0,Sultanpur Road,,"Sultanpur Road, Lucknow",26.8053934,80.9935175
https://www.99acres.com/oro-constella-sushant-golf-city-lucknow-npxid-r409651,3,Lucknow,19-02-2025,,"3, 4, 5 BHK Apartment",0,14900000.0,Sushant Golf City,,"Sushant Golf City, Lucknow",26.7801794,81.0247541
https://www.99acres.com/shalimar-one-world-pinnacle-gomti-nagar-extension-lucknow-npxid-r423230,4,Lucknow,19-02-2025,,"4, 5 BHK Apartment",0,45900000.0,Gomti Nagar Extension,,"Gomti Nagar Extension, Lucknow",,
https://www.99acres.com/jashn-elevate-sushant-golf-city-lucknow-npxid-r427388,2,Lucknow,19-02-2025,,"2, 3 BHK Apartment",0,15800000.0,Sushant Golf City,,"Sushant Golf City, Lucknow",26.7801794,81.0247541
https://www.99acres.com/2-bhk-bedroom-apartment-flat-for-sale-in-vinoth-viraj-maduravoyal-chennai-west-928-sq-ft-to-991-sq-ft-npspid-Q80337163,2,Chennai,19-02-2025,,2 BHK Flat,2,8445000.0,Maduravoyal,,"Maduravoyal, Chennai",13.0601732,80.1665988
https://www.99acres.com/3-bhk-bedroom-apartment-flat-for-sale-in-udhayam-saimugil-chitlapakkam-chennai-south-1647-sq-ft-npspid-P79116647,3,Chennai,19-02-2025,1647.0,3 BHK Flat,3,12500000.0,Chitlapakkam,7589.556769884639,"Chitlapakkam, Chennai",,
https://www.99acres.com/rajparis-diamond-mogappair-west-chennai-north-npxid-r409851,3,Chennai,19-02-2025,1260.0,3 BHK Apartment,3,12000000.0,Mogappair West,9523.809523809523,"Mogappair West, Chennai",13.0825352,80.1709175
https://www.99acres.com/divyasree-hub6-thiruporur-chennai-south-npxid-r12874,0,Chennai,19-02-2025,2100.0,Land,0,4080000.0,Thiruporur,1942.857142857143,"Thiruporur, Chennai",12.9539307,80.2425306
https://www.99acres.com/brigade-altius-sholinganallur-chennai-south-npxid-r438256,3,Chennai,19-02-2025,2170.0,"3, 4 BHK Apartment",3,19200000.0,Sholinganallur,8847.926267281106,"Sholinganallur, Chennai",12.9174426,80.2164902
https://www.99acres.com/marvellous-t-nagar-chennai-south-npxid-r398941,3,Chennai,19-02-2025,2370.0,"3, 4 BHK Apartment",3,34000000.0,T Nagar,14345.991561181434,"T Nagar, Chennai",13.034405,80.2301597
https://www.99acres.com/urban-pearl-county-pattabiram-chennai-north-npxid-r373276,0,Chennai,19-02-2025,1150.0,Land,0,1984000.0,Pattabiram,1725.2173913043478,"Pattabiram, Chennai",13.1189095,80.0824089
https://www.99acres.com/kg-kingdom-of-joy-sriperumbudur-chennai-west-npxid-r438496,0,Chennai,19-02-2025,2320.0,Land,0,1260000.0,Sriperumbudur,543.1034482758621,"Sriperumbudur, Chennai",12.9306203,79.8419781
https://www.99acres.com/ashiana-swarang-ecr-chennai-south-npxid-r439006,1,Chennai,19-02-2025,1190.0,"1, 2, 3 BHK Apartment",1,8460000.0,ECR,7109.243697478992,"ECR, Chennai",12.9858076,80.2597253
https://www.99acres.com/ashiana-vatsalya-mahindra-city-chennai-south-npxid-r439005,1,Chennai,19-02-2025,1205.0,"1, 2, 3 BHK Apartment",1,7090000.0,Mahindra City,5883.817427385892,"Mahindra City, Chennai",,
https://www.99acres.com/3-bhk-bedroom-apartment-flat-for-sale-in-santacruz-west-western-mumbai-1459-sq-ft-r1-spid-C78553579,3,Mumbai,19-02-2025,1459.0,Flat,4,73000000.0,Santacruz West,50034.27004797807,"Santacruz West, Mumbai",19.0844004,72.8372899
https://www.99acres.com/2-bhk-bedroom-apartment-flat-for-sale-in-lodha-casa-rio-dombivli-east-dombivli-east-mumbai-beyond-thane-686-sq-ft-r1-spid-A77236477,2,Thane,19-02-2025,686.0,Flat,2,5000000.0,Dombivli East,7288.62973760933,"Dombivli East, Thane",19.2111814,73.091129
https://www.99acres.com/godrej-horizon-wadala-south-mumbai-npxid-r389975,2,Mumbai,19-02-2025,1050.0,Apartment,2,29900000.0,Wadala,28476.190476190477,"Wadala, Mumbai",19.0210175,72.8568955
https://www.99acres.com/l-and-t-island-cove-mahim-west-south-mumbai-npxid-r394731,2,Mumbai,19-02-2025,955.0,Apartment,2,29100000.0,Mahim West,30471.204188481675,"Mahim West, Mumbai",19.0320971,72.8407782
https://www.99acres.com/lodha-divino-matunga-south-mumbai-npxid-r404243,2,Mumbai,19-02-2025,1225.0,Apartment,2,29800000.0,Matunga,24326.530612244896,"Matunga, Mumbai",19.0314768,72.8468509
https://www.99acres.com/lodha-the-park-worli-south-mumbai-npxid-r13344,2,Mumbai,19-02-2025,1550.0,Apartment,2,48000000.0,Worli,30967.74193548387,"Worli, Mumbai",19.0117388,72.8178706
https://www.99acres.com/l-and-t-the-gateway-sewri-south-mumbai-npxid-r423314,3,Mumbai,19-02-2025,1700.0,Apartment,2,44700000.0,Sewri,26294.117647058825,"Sewri, Mumbai",18.998984,72.8606754
https://www.99acres.com/lodha-new-cuffe-parade-wadala-south-mumbai-npxid-r1354,1,Mumbai,19-02-2025,1550.0,Apartment,1,14400000.0,Wadala,9290.322580645161,"Wadala, Mumbai",19.0210175,72.8568955
https://www.99acres.com/rustomjee-crown-prabhadevi-south-mumbai-npxid-r725,3,Mumbai,19-02-2025,2220.0,Apartment,2,95400000.0,Prabhadevi,42972.97297297297,"Prabhadevi, Mumbai",19.0074717,72.8358965
https://www.99acres.com/piramal-mahalaxmi-mahalaxmi-south-mumbai-npxid-r303861,2,Mumbai,19-02-2025,1280.0,Apartment,2,45700000.0,Mahalaxmi,35703.125,"Mahalaxmi, Mumbai",19.105218,72.828165
https://www.99acres.com/3-bhk-bedroom-independent-builder-floor-for-sale-in-paschim-vihar-west-delhi-1350-sq-ft-r4-spid-F74144417,3,Delhi,19-02-2025,1350.0,Independent Builder Floor,3,25500000.0,Paschim Vihar,18888.88888888889,"Paschim Vihar, Delhi",28.6695782,77.095956
https://www.99acres.com/3-bhk-bedroom-independent-builder-floor-for-sale-in-surajmal-vihar-east-delhi-1800-sq-ft-spid-W78462503,3,Delhi,19-02-2025,1800.0,Independent Builder Floor,2,26500000.0,Surajmal Vihar,14722.222222222223,"Surajmal Vihar, Delhi",28.6608095,77.3075455
https://www.99acres.com/sky-high-luxury-homes-sector-8-dwarka-delhi-npxid-r348181,2,Delhi,19-02-2025,,Independent Floor,2,8500000.0,Sector 8 Dwarka,,"Sector 8 Dwarka, Delhi",28.5711087,77.0730945
https://www.99acres.com/bhardwaj-builder-floors-model-town-north-delhi-npxid-r376612,3,Delhi,19-02-2025,,Independent Floor,3,0.0,Model Town,,"Model Town, Delhi",28.707334,77.1885231
https://www.99acres.com/dlf-capital-greens-1-and-2-moti-nagar-west-delhi-npxid-r473,2,Delhi,19-02-2025,,Apartment,2,21000000.0,Moti Nagar,,"Moti Nagar, Delhi",28.657859,77.1424288
https://www.99acres.com/unity-group-the-amaryllis-karol-bagh-central-delhi-npxid-r217503,2,Delhi,19-02-2025,,Apartment,2,22500000.0,Karol Bagh,,"Karol Bagh, Delhi",28.6529982,77.1890227
https://www.99acres.com/3baan-farms-chattarpur-south-delhi-npxid-r436830,4,Delhi,19-02-2025,,Villa,4,90000000.0,Chattarpur,,"Chattarpur, Delhi",28.4971399,77.1812506
https://www.99acres.com/pradeep-luxury-builders-floor-anand-vihar-east-delhi-npxid-r435515,2,Delhi,19-02-2025,,Independent Floor,2,13000000.0,Anand Vihar,,"Anand Vihar, Delhi",28.6468919,77.316053
https://www.99acres.com/chandok-apartments-and-floors-janakpuri-west-delhi-npxid-r437221,2,Delhi,19-02-2025,,Apartment,2,11000000.0,Janakpuri,,"Janakpuri, Delhi",28.6219272,77.0874757
https://www.99acres.com/luxury-floors-by-omdev-homes-greater-kailash-2-south-delhi-npxid-r436246,3,Delhi,19-02-2025,,Independent Floor,3,50000000.0,Greater Kailash 2,,"Greater Kailash 2, Delhi",28.5500342,77.2338932
https://www.99acres.com/3-bhk-bedroom-apartment-flat-for-sale-in-mahimas-palm-springs-tonk-road-jaipur-1705-sq-ft-to-2127-sq-ft-npspid-F79764097,3,Jaipur,19-02-2025,1920.0,3 BHK Flat,2,9378000.0,Tonk Road,4884.375,"Tonk Road, Jaipur",26.8389672,75.7938681
https://www.99acres.com/3-bhk-bedroom-apartment-flat-for-sale-in-richwell-empress-mansarovar-jaipur-1741-sq-ft-to-2194-sq-ft-npspid-T80075881,3,Jaipur,19-02-2025,1950.0,3 BHK Flat,2,12200000.0,Mansarovar,6256.410256410257,"Mansarovar, Jaipur",26.8756076,75.7509072
https://www.99acres.com/vardhman-empress-mansarovar-jaipur-npxid-r435628,3,Jaipur,19-02-2025,3400.0,"3, 4, 5 BHK Apartment",2,12200000.0,Mansarovar,3588.235294117647,"Mansarovar, Jaipur",26.8756076,75.7509072
https://www.99acres.com/viaans-radiant-vaishali-nagar-extension-jaipur-npxid-r438325,2,Jaipur,19-02-2025,1330.0,"2, 3 BHK Apartment",2,5132000.0,Vaishali Nagar Extension,3858.6466165413535,"Vaishali Nagar Extension, Jaipur",26.9116396,75.7310945
https://www.99acres.com/the-altitude-jagatpura-jaipur-npxid-r438439,3,Jaipur,19-02-2025,2510.0,"3, 4 BHK Apartment",2,12300000.0,Jagatpura,4900.398406374502,"Jagatpura, Jaipur",26.8335777,75.8273041
https://www.99acres.com/balaji-green-park-vaishali-nagar-jaipur-npxid-r434249,2,Jaipur,19-02-2025,1215.0,"2, 3 BHK Apartment",2,4200000.0,Vaishali Nagar,3456.7901234567903,"Vaishali Nagar, Jaipur",26.9095703,75.7391732
https://www.99acres.com/mahal-niwas-jagatpura-jaipur-npxid-r430517,3,Jaipur,19-02-2025,1480.0,3 BHK Apartment,2,5846000.0,Jagatpura,3950.0,"Jagatpura, Jaipur",26.8335777,75.8273041
https://www.99acres.com/trimurty-divinity-c-scheme-jaipur-npxid-r380493,3,Jaipur,19-02-2025,2340.0,"3, 4 BHK Apartment",2,28900000.0,C Scheme,12350.42735042735,"C Scheme, Jaipur",26.9720704,75.7629849
https://www.99acres.com/askg-pinnacle-place-mansarovar-jaipur-npxid-r438214,3,Jaipur,19-02-2025,1400.0,3 BHK Apartment,2,6182000.0,Mansarovar,4415.714285714285,"Mansarovar, Jaipur",26.8756076,75.7509072
https://www.99acres.com/shivam-majestic-jagatpura-jaipur-npxid-r407878,3,Jaipur,19-02-2025,1700.0,"3, 4 BHK Apartment",2,7225000.0,Jagatpura,4250.0,"Jagatpura, Jaipur",26.8335777,75.8273041
https://www.99acres.com/3-bhk-bedroom-apartment-flat-for-sale-in-godrej-tropical-isle-sector-146-noida-1925-sq-ft-r3-spid-V76331591,3,Noida,19-02-2025,1925.0,3 BHK Flat,3,29800000.0,Sector 146,15480.51948051948,"Sector 146, Noida",28.5705399,77.3228931
https://www.99acres.com/residential-land-plot-for-sale-in-g-block-sector-44-noida-717-sq-yard-r13-spid-M61426252,0,Noida,19-02-2025,6458.0,Residential land / Plot,0,270000000.0,Block G Sector 44,41808.60947661815,"Block G Sector 44, Noida",28.5701239,77.3240992
https://www.99acres.com/ivory-county-sector-115-noida-npxid-r400436,3,Noida,19-02-2025,,"3, 4, 5 BHK Apartment",0,29500000.0,Sector 115,,"Sector 115, Noida",28.5706333,77.3272147
https://www.99acres.com/godrej-riverine-sector-44-noida-npxid-r431964,3,Noida,19-02-2025,,"3, 4 BHK Apartment",0,73000000.0,Sector 44,,"Sector 44, Noida",28.5531837,77.3381716
https://www.99acres.com/ats-picturesque-reprieves-sector-152-noida-npxid-r269397,3,Noida,19-02-2025,,"3, 4 BHK Apartment",0,25900000.0,Sector 152,,"Sector 152, Noida",28.5705399,77.3228931
https://www.99acres.com/godrej-woods-sector-43-noida-npxid-r374312,2,Noida,19-02-2025,,"2, 3, 4, 5 BHK Apartment",0,18000000.0,Sector 43,,"Sector 43, Noida",28.5575946,77.351679
https://www.99acres.com/ivy-county-sector-75-noida-npxid-r341813,3,Noida,19-02-2025,,"3, 4 BHK Apartment",0,26500000.0,Sector 75,,"Sector 75, Noida",28.4716932,77.5313411
https://www.99acres.com/experion-elements-sector-45-noida-npxid-r414339,3,Noida,19-02-2025,,"3, 4 BHK Apartment",0,59500000.0,Sector 45,,"Sector 45, Noida",28.5506021,77.3505128
https://www.99acres.com/aba-cleo-county-sector-121-noida-npxid-r2274,3,Noida,19-02-2025,,"3, 4 BHK Apartment",0,23000000.0,sector 121,,"sector 121, Noida",28.471143,77.5312609
https://www.99acres.com/m3m-the-cullinan-sector-94-noida-npxid-r410631,3,Noida,19-02-2025,,"3, 4, 5 BHK Apartment",0,81700000.0,Sector 94,,"Sector 94, Noida",28.5510172,77.323759
https://www.99acres.com/residential-land-plot-for-sale-in-bihta-patna-133-sq-yard-r4-spid-K71904360,0,Patna,19-02-2025,1200.0,Residential land / Plot,0,1558000.0,Bihta,1298.3333333333333,"Bihta, Patna",25.561037,84.8723411
https://www.99acres.com/residential-land-plot-for-sale-in-sonepur-patna-267-sq-yard-spid-G79871327,0,Patna,19-02-2025,2400.0,Residential land / Plot,0,5520000.0,Sonepur,2300.0,"Sonepur, Patna",,
https://www.99acres.com/residential-land-plot-for-sale-in-jeoni-mandi-agra-11000-sq-yard-r1-spid-R76308881,0,Agra,2w ago,99000.0,Residential land / Plot,0,600000000.0,Jeoni Mandi,6060.606060606061,"Jeoni Mandi, Agra",27.1955135,78.0243315
https://www.99acres.com/5-bhk-bedroom-independent-house-villa-for-sale-in-civil-lines-agra-3753-sq-ft-r1-spid-H64272968,5,Agra,3w ago,3753.0,5 Bedroom House,2,41700000.0,Civil Lines,11111.111111111111,"Civil Lines, Agra",27.1994347,78.0059008
https://www.99acres.com/3-bhk-bedroom-apartment-flat-for-sale-in-shanker-greens-taj-nagari-agra-1883-sq-ft-spid-A78746085,3,Agra,2mo ago,1883.0,3 BHK Flat,3,11000000.0,Taj Nagari,5841.741901221455,"Taj Nagari, Agra",,
https://www.99acres.com/2-bhk-bedroom-apartment-flat-for-sale-in-shastripuram-agra-968-sq-ft-r1-spid-A76332025,2,Agra,2mo ago,968.0,2 BHK Flat,2,5200000.0,Shastripuram,5371.900826446281,"Shastripuram, Agra",27.2157483,77.9182914
https://www.99acres.com/3-bhk-bedroom-apartment-flat-for-sale-in-eminent-emerald-residency-dayal-bagh-agra-1705-sq-ft-r4-spid-J65913662,3,Agra,2mo ago,1705.0,3 BHK Flat,3,8200000.0,Dayal Bagh,4809.384164222874,"Dayal Bagh, Agra",27.2192664,78.0083362
https://www.99acres.com/2-bhk-bedroom-apartment-flat-for-sale-in-maharishi-puram-colony-agra-894-sq-ft-spid-T79980809,2,Agra,1mo ago,894.0,2 BHK Flat,2,4000000.0,Maharishi Puram Colony,4474.27293064877,"Maharishi Puram Colony, Agra",,
https://www.99acres.com/3-bhk-bedroom-independent-house-villa-for-sale-in-dayal-bagh-agra-2367-sq-ft-spid-D79087041,3,Agra,2mo ago,2367.0,3 Bedroom House,3,31500000.0,Dayal Bagh,13307.984790874525,"Dayal Bagh, Agra",27.2192664,78.0083362
https://www.99acres.com/residential-land-plot-for-sale-in-shastripuram-agra-358-sq-yard-spid-Z78224673,0,Agra,3mo ago,3229.0,Residential land / Plot,0,25000000.0,Shastripuram,7742.33508826262,"Shastripuram, Agra",27.2157483,77.9182914
https://www.99acres.com/residential-land-plot-for-sale-in-dayal-bagh-agra-1333-sq-yard-spid-E80071237,0,Agra,1w ago,11997.0,Residential land / Plot,0,27000000.0,Dayal Bagh,2250.562640660165,"Dayal Bagh, Agra",27.2192664,78.0083362
https://www.99acres.com/4-bhk-bedroom-independent-house-villa-for-sale-in-nalanda-town-shamshabad-road-agra-1250-sq-ft-spid-O78357211,4,Agra,3mo ago,1250.0,4 Bedroom House,3,5200000.0,Shamshabad Road,4160.0,"Shamshabad Road, Agra",,
https://www.99acres.com/residential-land-plot-for-sale-in-dakamarri-visakhapatnam-400-sq-yard-spid-D79154929,0,Visakhapatnam,2025-02-19T04:38:35.432Z,3600.0,Residential land / Plot,0,12000000.0,Dakamarri,3333.3333333333335,"Dakamarri, Visakhapatnam",17.9889945,83.4009707
https://www.99acres.com/4-bhk-bedroom-independent-house-villa-for-sale-in-kommadi-visakhapatnam-2403-sq-ft-r1-spid-B76462667,4,Visakhapatnam,2025-02-19T04:38:35.432Z,2403.0,4 Bedroom House,4,19500000.0,Kommadi,8114.8564294631715,"Kommadi, Visakhapatnam",17.8306475,83.3357655
https://www.99acres.com/4-bhk-bedroom-independent-house-villa-for-sale-in-maddilapalem-visakhapatnam-2800-sq-ft-spid-Y79147007,4,Visakhapatnam,2025-02-19T04:38:35.432Z,2800.0,4 Bedroom House,1,12000000.0,Maddilapalem,4285.714285714285,"Maddilapalem, Visakhapatnam",17.7352245,83.3209373
https://www.99acres.com/residential-land-plot-for-sale-in-anandapuram-visakhapatnam-400-sq-yard-spid-X79146491,0,Visakhapatnam,2025-02-19T04:38:35.432Z,3600.0,Residential land / Plot,0,11000000.0,Anandapuram,3055.5555555555557,"Anandapuram, Visakhapatnam",17.7438675,83.2534917
https://www.99acres.com/residential-land-plot-for-sale-in-narsipatnam-visakhapatnam-1258-sq-yard-spid-O79144285,0,Visakhapatnam,2025-02-19T04:38:35.432Z,11325.0,Residential land / Plot,0,10000000.0,Narsipatnam,883.0022075055188,"Narsipatnam, Visakhapatnam",17.8945076,83.4113696
https://www.99acres.com/residential-land-plot-for-sale-in-sattenapalle-guntur-6534-sq-yard-spid-V79143043,0,Guntur,2025-02-19T04:38:35.432Z,58806.0,Residential land / Plot,0,10000000.0,Sattenapalle,170.05067510118016,"Sattenapalle, Guntur",16.3594715,80.1575175
https://www.99acres.com/5-bhk-bedroom-independent-builder-floor-for-sale-in-rtc-colony-kakinada-3000-sq-ft-spid-G79138381,5,Kakinada,2025-02-19T04:38:35.432Z,3000.0,5 BHK Independent Builder Floor,5,12500000.0,RTC colony,4166.666666666667,"RTC colony, Kakinada",16.9931923,82.2501521
https://www.99acres.com/residential-land-plot-for-sale-in-vizianagaram-800-sq-yard-spid-W79131335,0,Vizianagaram,2025-02-19T04:38:35.432Z,7200.0,Residential land / Plot,0,16000000.0,Modavalasa,2222.222222222222,"Modavalasa, Vizianagaram",,
https://www.99acres.com/2-bhk-bedroom-independent-house-villa-for-sale-in-sector-9-mvp-colony-visakhapatnam-4500-sq-ft-spid-Q79125923,2,Visakhapatnam,2025-02-19T04:38:35.432Z,4500.0,2 Bedroom House,2,20000000.0,Sector 9 MVP Colony,4444.444444444444,"Sector 9 MVP Colony, Visakhapatnam",17.745489,83.3398923
https://www.99acres.com/7-bhk-bedroom-independent-house-villa-for-sale-in-tandur-vikarabad-4338-sq-ft-spid-G79120191,7,Vikarabad,2025-02-19T04:38:35.432Z,4338.0,7 Bedroom House,7,20000000.0,Tandur,4610.419548178885,"Tandur, Vikarabad",17.2509364,77.5841263
https://www.99acres.com/4-bhk-bedroom-apartment-flat-for-sale-in-sb-city-by-sb-ventures-thimmapuram-kakinada-3900-sq-ft-spid-M79907219,4,Kakinada,2025-02-19T04:38:34.048Z,3900.0,Flat,3,30000000.0,Thimmapuram,7692.307692307692,"Thimmapuram, Kakinada",17.0313452,82.2492745
https://www.99acres.com/12-bhk-bedroom-independent-house-villa-for-sale-in-pallamraju-nagar-kakinada-8500-sq-ft-spid-S79358009,12,Kakinada,2025-02-19T04:38:34.048Z,8500.0,House,12,42000000.0,Pallamraju Nagar,4941.176470588235,"Pallamraju Nagar, Kakinada",16.9632919,82.2497604
https://www.99acres.com/5-bhk-bedroom-independent-house-villa-for-sale-in-sarpavaram-kakinada-2430-sq-ft-r2-spid-E73411155,5,Kakinada,2025-02-19T04:38:34.048Z,2430.0,House,4,33000000.0,Sarpavaram,13580.246913580248,"Sarpavaram, Kakinada",17.0018867,82.2248384
https://www.99acres.com/2-bhk-bedroom-apartment-flat-for-sale-in-cheediga-kakinada-1980-sq-ft-spid-B78290771,2,Kakinada,2025-02-19T04:38:34.048Z,1980.0,Flat,2,30000000.0,Cheediga,15151.515151515152,"Cheediga, Kakinada",16.9636473,82.2129751
https://www.99acres.com/residential-land-plot-for-sale-in-narasanna-nagar-kakinada-496-sq-yard-spid-S79146237,0,Kakinada,2025-02-19T04:38:34.048Z,4464.0,Land,0,32500000.0,Narasanna Nagar,7280.465949820788,"Narasanna Nagar, Kakinada",,
https://www.99acres.com/10-bhk-bedroom-independent-house-villa-for-sale-in-sarpavaram-kakinada-484-sq-ft-spid-F78756201,10,Kakinada,2025-02-19T04:38:34.048Z,484.0,House,6,33900000.0,Sarpavaram,70041.32231404958,"Sarpavaram, Kakinada",17.0018867,82.2248384
https://www.99acres.com/4-bhk-bedroom-independent-house-villa-for-sale-in-kakinada-2655-sq-ft-spid-G79250079,4,Kakinada,2025-02-19T04:38:34.048Z,2655.0,House,5,25000000.0,"SBI Staff Colony, Srinivasa Nagar",9416.195856873823,"SBI Staff Colony, Srinivasa Nagar, Kakinada",,
https://www.99acres.com/2-bhk-bedroom-independent-house-villa-for-sale-in-ashok-nagar-kakinada-1800-sq-ft-r1-spid-U74770179,2,Kakinada,2025-02-19T04:38:34.048Z,1800.0,House,3,25000000.0,Ashok Nagar,13888.888888888889,"Ashok Nagar, Kakinada",16.9843893,82.2271171
https://www.99acres.com/5-bhk-bedroom-independent-house-villa-for-sale-in-ramanayapeta-kakinada-3150-sq-ft-spid-X80181911,5,Kakinada,2025-02-19T04:38:34.048Z,3150.0,House,5,25000000.0,Ramanayapeta,7936.507936507936,"Ramanayapeta, Kakinada",,
https://www.99acres.com/residential-land-plot-for-sale-in-chitrada-kakinada-5179-sq-yard-spid-V79225539,0,Kakinada,2025-02-19T04:38:34.048Z,46609.0,Land,0,25000000.0,Chitrada,536.3770945525542,"Chitrada, Kakinada",17.0857169,82.2459113
https://www.99acres.com/residential-land-plot-for-sale-in-gajuwaka-visakhapatnam-302-sq-yard-spid-I78221397,0,Visakhapatnam,3mo ago,2718.0,Residential land / Plot,0,30000000.0,Gajuwaka,11037.527593818984,"Gajuwaka, Visakhapatnam",17.6813983,83.2130062
https://www.99acres.com/3-bhk-bedroom-apartment-flat-for-sale-in-kancharapalem-visakhapatnam-1380-sq-ft-r1-spid-U73988533,3,Visakhapatnam,3mo ago,1380.0,3 BHK Flat,2,7000000.0,Kancharapalem,5072.463768115942,"Kancharapalem, Visakhapatnam",17.7300104,83.2779065
https://www.99acres.com/residential-land-plot-for-sale-in-anakapalle-visakhapatnam-10503-sq-yard-spid-I78216765,0,Visakhapatnam,3mo ago,94525.0,Residential land / Plot,0,15100000.0,Anakapalle,159.7460989156308,"Anakapalle, Visakhapatnam",17.7438675,83.2534917
https://www.99acres.com/2-bhk-bedroom-apartment-flat-for-sale-in-group-apartment-madhurawada-visakhapatnam-980-sq-ft-spid-T78214855,2,Visakhapatnam,3mo ago,980.0,2 BHK Flat,2,4500000.0,Madhurawada,4591.836734693878,"Madhurawada, Visakhapatnam",17.8102465,83.3540167
https://www.99acres.com/2-bhk-bedroom-apartment-flat-for-sale-in-pedagantyada-visakhapatnam-920-sq-ft-spid-R78212059,2,Visakhapatnam,3mo ago,920.0,2 BHK Flat,2,4500000.0,Pedagantyada,4891.304347826087,"Pedagantyada, Visakhapatnam",17.7438675,83.2534917
https://www.99acres.com/residential-land-plot-for-sale-in-bhogapuram-visakhapatnam-167-sq-yard-spid-T78209499,0,Visakhapatnam,3mo ago,1503.0,Residential land / Plot,0,3000000.0,Bhogapuram,1996.007984031936,"Bhogapuram, Visakhapatnam",,
https://www.99acres.com/3-bhk-bedroom-apartment-flat-for-sale-in-mvv-city-madhurawada-visakhapatnam-1500-sq-ft-spid-V78208957,3,Visakhapatnam,3mo ago,1500.0,3 BHK Flat,2,12500000.0,Madhurawada,8333.333333333334,"Madhurawada, Visakhapatnam",17.8102465,83.3540167
https://www.99acres.com/2-bhk-bedroom-serviced-apartment-flat-for-sale-in-hema-abodes-twin-bliss-muralinagar-visakhapatnam-1200-sq-ft-spid-I78202793,2,Visakhapatnam,3mo ago,1200.0,2 BHK Serviced Apartment,2,8500000.0,Muralinagar,7083.333333333333,"Muralinagar, Visakhapatnam",,
https://www.99acres.com/other-residential-property-for-sale-in-narsipatnam-visakhapatnam-740527-sq-ft-spid-O78202453,0,Visakhapatnam,3mo ago,740520.0,Residential property,0,40000000.0,Narsipatnam,54.01609679684546,"Narsipatnam, Visakhapatnam",17.8945076,83.4113696
https://www.99acres.com/residential-land-plot-for-sale-in-visakhapatnam-160-sq-yard-spid-X78202271,0,Visakhapatnam,3mo ago,1440.0,Residential land / Plot,0,5500000.0,balacheruvu road,3819.4444444444443,"balacheruvu road, Visakhapatnam",17.6284874,83.1853367
https://www.99acres.com/property-rates-and-price-trends-in-sector-92-noida-prffid,2,Noida,19-02-2025,,Apartment,2,17400.0,Noida Greater Noida Expressway,,"Noida Greater Noida Expressway, Noida",28.4926342,77.4231568
https://www.99acres.com/property-rates-and-price-trends-in-sector-144-noida-prffid,3,Noida,19-02-2025,,Apartment,2,13500.0,Noida Greater Noida Expressway,,"Noida Greater Noida Expressway, Noida",28.4926342,77.4231568
https://www.99acres.com/property-rates-and-price-trends-in-sector-75-noida-prffid,3,Noida,19-02-2025,,Apartment,2,13400.0,Central Noida,,"Central Noida, Noida",28.5282895,77.3775221
https://www.99acres.com/property-rates-and-price-trends-in-sector-151-noida-prffid,2,Noida,19-02-2025,,Apartment,2,7250.0,Noida Greater Noida Expressway,,"Noida Greater Noida Expressway, Noida",28.4926342,77.4231568
https://www.99acres.com/property-rates-and-price-trends-in-sector-143b-noida-prffid,2,Noida,19-02-2025,,Apartment,2,12500.0,Noida Greater Noida Expressway,,"Noida Greater Noida Expressway, Noida",28.4926342,77.4231568
https://www.99acres.com/property-rates-and-price-trends-in-sector-107-noida-prffid,3,Noida,19-02-2025,,Apartment,2,14800.0,Noida Greater Noida Expressway,,"Noida Greater Noida Expressway, Noida",28.4926342,77.4231568
https://www.99acres.com/property-rates-and-price-trends-in-sector-79-noida-prffid,3,Noida,19-02-2025,,Apartment,2,13250.0,Central Noida,,"Central Noida, Noida",28.5282895,77.3775221
https://www.99acres.com/property-rates-and-price-trends-in-sector-133-noida-prffid,2,Noida,19-02-2025,,Apartment,2,8250.0,Noida Greater Noida Expressway,,"Noida Greater Noida Expressway, Noida",28.4926342,77.4231568
https://www.99acres.com/property-rates-and-price-trends-in-sector-152-noida-prffid,2,Noida,19-02-2025,,Apartment,2,11250.0,Noida Greater Noida Expressway,,"Noida Greater Noida Expressway, Noida",28.4926342,77.4231568
https://www.99acres.com/property-rates-and-price-trends-in-sector-108-noida-prffid,3,Noida,19-02-2025,,Apartment,2,15200.0,Noida Greater Noida Expressway,,"Noida Greater Noida Expressway, Noida",28.4926342,77.4231568
https://www.99acres.com/residential-land-plot-for-sale-in-mominpet-hyderabad-240-sq-yard-spid-H79682279,0,Hyderabad,19-01-2025,2160.0,Residential land / Plot,0,2000000.0,Mominpet,925.925925925926,"Mominpet, Hyderabad",,
https://www.99acres.com/residential-land-plot-for-sale-in-kothur-hyderabad-233-sq-yard-spid-N79160347,0,Hyderabad,19-01-2025,2095.0,Residential land / Plot,0,3726000.0,Kothur,1778.5202863961813,"Kothur, Hyderabad",17.1404107,78.2811306
https://www.99acres.com/residential-land-plot-for-sale-in-nadargul-hyderabad-150-sq-yard-r5-spid-X71362954,0,Hyderabad,19-01-2025,1350.0,Residential land / Plot,0,5400000.0,Nadargul,4000.0,"Nadargul, Hyderabad",17.3055482,78.5614916
https://www.99acres.com/3-bhk-bedroom-apartment-flat-for-sale-in-anantula-sai-ashirvad-nagole-hyderabad-1795-sq-ft-spid-M78519325,3,Hyderabad,19-01-2025,1795.0,3 BHK Flat,3,10500000.0,Nagole,5849.58217270195,"Nagole, Hyderabad",17.3775306,78.5601231
https://www.99acres.com/3-bhk-bedroom-apartment-flat-for-sale-in-bscpl-bollineni-bion-kondapur-hyderabad-1965-sq-ft-spid-Z80157247,3,Hyderabad,19-01-2025,1965.0,3 BHK Flat,4,25300000.0,Kondapur,12875.31806615776,"Kondapur, Hyderabad",17.4587912,78.3730556
https://www.99acres.com/2-bhk-bedroom-apartment-flat-for-sale-in-bscpl-bollineni-bion-kondapur-hyderabad-1290-sq-ft-spid-Y80036359,2,Hyderabad,19-01-2025,1290.0,2 BHK Flat,2,16000000.0,Kondapur,12403.100775193798,"Kondapur, Hyderabad",17.4587912,78.3730556
https://www.99acres.com/residential-land-plot-for-sale-in-tellapur-hyderabad-420-sq-yard-spid-Y79542783,0,Hyderabad,19-01-2025,3780.0,Residential land / Plot,0,58000000.0,Tellapur,15343.915343915343,"Tellapur, Hyderabad",17.4503205,78.3009176
https://www.99acres.com/residential-land-plot-for-sale-in-bangalore-highway-hyderabad-200-sq-yard-spid-K79368821,0,Hyderabad,19-01-2025,1800.0,Residential land / Plot,0,5200000.0,Bangalore Highway,2888.8888888888887,"Bangalore Highway, Hyderabad",17.4643359,78.3671254
https://www.99acres.com/residential-land-plot-for-sale-in-bhashyam-rrr-county-shankarpally-hyderabad-185-sq-yard-spid-D79776527,0,Hyderabad,19-01-2025,1665.0,Residential land / Plot,0,2960000.0,Shankarpally,1777.7777777777778,"Shankarpally, Hyderabad",,
https://www.99acres.com/residential-land-plot-for-sale-in-nallagandla-hyderabad-430-sq-yard-spid-H79543277,0,Hyderabad,19-01-2025,3870.0,Residential land / Plot,0,56000000.0,Nallagandla,14470.284237726099,"Nallagandla, Hyderabad",17.4774828,78.3060359
https://www.99acres.com/adityaram-nagar-5-ecr-chennai-south-npxid-r1383,0,Chennai,19-02-2025,3600.0,Land,0,19000000.0,ECR,5277.777777777777,"ECR, Chennai",12.9858076,80.2597253
https://www.99acres.com/minerva-sai-darshan-perumbakkam-chennai-south-npxid-r436802,2,Chennai,19-02-2025,1165.0,2 BHK Apartment,0,7514000.0,Perumbakkam,6449.785407725322,"Perumbakkam, Chennai",12.9050095,80.1968629
https://www.99acres.com/hiranandani-loftline-thaiyur-chennai-south-npxid-r27142,0,Chennai,19-02-2025,1600.0,Land,0,4230000.0,Thaiyur,2643.75,"Thaiyur, Chennai",12.7700587,80.2129459
https://www.99acres.com/dlf-parc-estate-siruseri-chennai-south-npxid-r385441,0,Chennai,19-02-2025,,Land,0,7600000.0,Siruseri,,"Siruseri, Chennai",12.8282729,80.2203926
https://www.99acres.com/isha-shubham-new-perungalathur-chennai-south-npxid-r402129,2,Chennai,19-02-2025,1235.0,"2, 3 BHK Apartment",0,6513000.0,New perungalathur,5273.684210526316,"New perungalathur, Chennai",12.9216163,80.0935766
https://www.99acres.com/elite-akash-garden-kandigai-chennai-south-npxid-r378854,0,Chennai,19-02-2025,1440.0,Land,0,2723000.0,Kandigai,1890.9722222222222,"Kandigai, Chennai",13.2246426,80.0183746
https://www.99acres.com/vgn-grandeur-iyyappanthangal-chennai-west-npxid-r427423,0,Chennai,19-02-2025,2050.0,Land,0,4062000.0,Iyyappanthangal,1981.4634146341464,"Iyyappanthangal, Chennai",,
https://www.99acres.com/dra-infinique-valasaravakkam-chennai-west-npxid-r419925,3,Chennai,19-02-2025,1280.0,"3, 4 BHK Apartment",0,21200000.0,Valasaravakkam,16562.5,"Valasaravakkam, Chennai",13.0410164,80.1721682
https://www.99acres.com/3-bhk-bedroom-apartment-flat-for-sale-in-perungudi-chennai-south-1723-sq-ft-spid-R79451893,3,Chennai,19-02-2025,1723.0,3 BHK Flat,3,20700000.0,Perungudi,12013.929193267557,"Perungudi, Chennai",12.9710239,80.2418051
https://www.99acres.com/residential-land-plot-for-sale-in-dharani-square-maraimalai-nagar-chennai-south-187-sq-yard-r2-spid-X74990473,0,Chennai,19-02-2025,1680.0,Residential land / Plot,0,4800000.0,"Maraimalai Nagar, GST Road",2857.1428571428573,"Maraimalai Nagar, GST Road, Chennai",,
https://www.99acres.com/residential-land-plot-for-sale-in-chirle-navi-mumbai-121-sq-yard-spid-S80043461,0,Navi Mumbai,19-02-2025,1089.0,Residential land / Plot,0,5.15,Chirle,0.00472910927456382,"Chirle, Navi Mumbai",,
https://www.99acres.com/residential-land-plot-for-sale-in-panvel-navi-mumbai-121-sq-yard-spid-Y80121649,0,Navi Mumbai,19-02-2025,1089.0,Residential land / Plot,0,9.0,Panvel,0.008264462809917356,"Panvel, Navi Mumbai",19.0690633,72.99314
https://www.99acres.com/1-bhk-bedroom-independent-house-villa-for-sale-in-nalanda-nagar-central-mumbai-suburbs-300-sq-ft-r2-spid-Y61567464,1,Mumbai,19-02-2025,300.0,1 Bedroom House,1,15.0,Nalanda Nagar,0.05,"Nalanda Nagar, Mumbai",19.074891,72.913995
https://www.99acres.com/1-bhk-bedroom-independent-builder-floor-for-sale-in-south-mumbai-400-sq-ft-spid-Q79837329,1,Mumbai,19-02-2025,400.0,1 BHK Independent Builder Floor,1,15.0,Badlapur Vangani,0.0375,"Badlapur Vangani, Mumbai",,
https://www.99acres.com/studio-apartment-flat-for-sale-in-mumbai-andheri-dahisar-200-sq-ft-spid-F78213639,1,Mumbai,19-02-2025,200.0,Studio Apartments / 1 RK Flats,1,9.0,nallasopara,0.045,"nallasopara, Mumbai",,
https://www.99acres.com/1-bhk-bedroom-independent-house-villa-for-sale-in-santacruz-east-western-mumbai-180-sq-ft-spid-F80308689,1,Mumbai,19-02-2025,180.0,1 Bedroom House,1,15.0,Santacruz East,0.08333333333333333,"Santacruz East, Mumbai",19.0740097,72.8689943
https://www.99acres.com/1-bhk-bedroom-apartment-flat-for-sale-in-malad-west-mumbai-andheri-dahisar-200-sq-ft-spid-Y80284943,1,Mumbai,19-02-2025,200.0,1 BHK Flat,1,13.0,Malad West,0.065,"Malad West, Mumbai",19.1852851,72.8358611
https://www.99acres.com/1-bhk-bedroom-independent-builder-floor-for-sale-in-asalpha-central-mumbai-suburbs-100-sq-ft-spid-I80257293,1,Mumbai,19-02-2025,100.0,1 BHK Independent Builder Floor,1,13.0,Asalpha,0.13,"Asalpha, Mumbai",19.097,72.8945
https://www.99acres.com/1-bhk-bedroom-independent-builder-floor-for-sale-in-kandivali-east-mumbai-andheri-dahisar-360-sq-ft-spid-R80142791,1,Mumbai,19-02-2025,360.0,1 BHK Independent Builder Floor,1,11.5,Kandivali East,0.03194444444444444,"Kandivali East, Mumbai",19.2051958,72.8626165
https://www.99acres.com/1-bhk-bedroom-independent-house-villa-for-sale-in-kandivali-west-mumbai-andheri-dahisar-340-sq-ft-spid-V80094569,1,Mumbai,19-02-2025,340.0,1 Bedroom House,1,12.0,Kandivali West,0.03529411764705882,"Kandivali West, Mumbai",19.2055321,72.8399273
https://www.99acres.com/3-bhk-bedroom-apartment-flat-for-sale-in-kundan-eternia-2-ghorpadi-pune-1510-sq-ft-spid-B79570853,3,Pune,18-02-2025,1510.0,Residential apartment,3,16000000.0,Ghorpadi,10596.026490066226,"Ghorpadi, Pune",18.5268544,73.9000956
https://www.99acres.com/2-bhk-bedroom-apartment-flat-for-sale-in-sinhgad-road-pune-1075-sq-ft-spid-A79425559,2,Pune,19-01-2025,1075.0,Residential apartment,2,13000000.0,Sinhgad Road,12093.023255813954,"Sinhgad Road, Pune",18.4651377,73.8363254
https://www.99acres.com/3-bhk-bedroom-apartment-flat-for-sale-in-godrej-prana-undri-pune-south-1150-sq-ft-spid-C76644695,3,Pune,05-02-2025,1150.0,Residential apartment,2,9500000.0,Undri,8260.869565217392,"Undri, Pune",18.4516288,73.8927589
https://www.99acres.com/2-bhk-bedroom-apartment-flat-for-sale-in-shapoorji-joyville-sensorium-hinjewadi-pune-710-sq-ft-spid-T77568443,2,Pune,19-01-2025,710.0,Residential apartment,2,8700000.0,Hinjewadi,12253.521126760563,"Hinjewadi, Pune",18.5920497,73.7579029
https://www.99acres.com/3-bhk-bedroom-apartment-flat-for-sale-in-vtp-cygnus-manjari-khurd-pune-840-sq-ft-spid-E79181215,3,Pune,19-01-2025,840.0,Residential apartment,3,10000000.0,Manjari Khurd,11904.761904761905,"Manjari Khurd, Pune",18.5258016,73.9920372
https://www.99acres.com/2-bhk-bedroom-apartment-flat-for-sale-in-punawale-pune-west-690-sq-ft-spid-D79740105,2,Pune,13-02-2025,690.0,Residential apartment,2,6500000.0,Punawale,9420.289855072464,"Punawale, Pune",18.6382904,73.7461948
https://www.99acres.com/6-bhk-bedroom-independent-house-villa-for-sale-in-katraj-pune-840-sq-ft-spid-T76240347,6,Pune,19-01-2025,840.0,Independent House/Villa,6,13500000.0,Katraj,16071.42857142857,"Katraj, Pune",18.4536792,73.8563196
https://www.99acres.com/1-bhk-bedroom-apartment-flat-for-sale-in-amrutvel-greens-kirkatwadi-pune-640-sq-ft-spid-M77933479,1,Pune,17-02-2025,640.0,Residential apartment,1,3500000.0,Kirkatwadi,5468.75,"Kirkatwadi, Pune",18.446964,73.7890265
https://www.99acres.com/3-bhk-bedroom-apartment-flat-for-sale-in-godrej-hillside-mahalunge-pune-878-sq-ft-spid-V80127563,3,Pune,12-02-2025,878.0,Residential apartment,3,12000000.0,Mahalunge,13667.425968109339,"Mahalunge, Pune",19.0931323,73.7526518
